[
  {
    "name": "乙姫玉手箱",
    "address": "〒627-0133 京都府京丹後市弥栄町鳥取123",
    "lat": 35.674342,
    "lng": 135.068268
  },
  {
    "name": "タピオカエイト",
    "address": "〒627-0133 京都府京丹後市弥栄町鳥取123",
    "lat": 35.674342,
    "lng": 135.068268
  },
  {
    "name": "ジェラテリアそら",
    "address": "〒627-0133 京都府京丹後市弥栄町鳥取123",
    "lat": 35.674342,
    "lng": 135.068268
  },
  {
    "name": "９１８(KUIYA)",
    "address": "〒627-0133 京都府京丹後市弥栄町鳥取123",
    "lat": 35.674342,
    "lng": 135.068268
  },
  {
    "name": "campanio",
    "address": "〒627-0133 京都府京丹後市弥栄町鳥取123",
    "lat": 35.674342,
    "lng": 135.068268
  },
  {
    "name": "トン’s キッチン",
    "address": "〒627-0133 京都府京丹後市弥栄町鳥取123",
    "lat": 35.674342,
    "lng": 135.068268
  },
  {
    "name": "山と海 with 日本海牧場",
    "address": "〒627-0133 京都府京丹後市弥栄町鳥取123",
    "lat": 35.674342,
    "lng": 135.068268
  },
  {
    "name": "七姫殿",
    "address": "〒627-0133 京都府京丹後市弥栄町鳥取123",
    "lat": 35.674342,
    "lng": 135.068268
  },
  {
    "name": "Jiggy‘s kitchen",
    "address": "〒627-0133 京都府京丹後市弥栄町鳥取123",
    "lat": 35.674342,
    "lng": 135.068268
  },
  {
    "name": "ホテル丹後王国 レストランTango",
    "address": "〒627-0133 京都府京丹後市弥栄町鳥取123",
    "lat": 35.674342,
    "lng": 135.068268
  },
  {
    "name": "丹後匠庵",
    "address": "〒627-0133 京都府京丹後市弥栄町鳥取123",
    "lat": 35.674342,
    "lng": 135.068268
  },
  {
    "name": "[おすすめの逸品]園内醸造の「丹後クラフトビール」",
    "address": "〒627-0133 京都府京丹後市弥栄町鳥取123",
    "lat": 35.674342,
    "lng": 135.068268
  },
  {
    "name": "[おすすめの逸品]「自家製ソーセージ」",
    "address": "〒627-0133 京都府京丹後市弥栄町鳥取123",
    "lat": 35.674342,
    "lng": 135.068268
  },
  {
    "name": "トン’Sキッチン“THE BUTCHER”",
    "address": "〒627-0133 京都府京丹後市弥栄町鳥取123",
    "lat": 35.674342,
    "lng": 135.068268
  },
  {
    "name": "収穫体験農園",
    "address": "〒627-0133 京都府京丹後市弥栄町鳥取123",
    "lat": 35.674342,
    "lng": 135.068268
  },
  {
    "name": "森の散策路",
    "address": "〒627-0133 京都府京丹後市弥栄町鳥取123",
    "lat": 35.674342,
    "lng": 135.068268
  },
  {
    "name": "あじさい園",
    "address": "〒627-0133 京都府京丹後市弥栄町鳥取123",
    "lat": 35.674342,
    "lng": 135.068268
  },
  {
    "name": "小さな動物園",
    "address": "〒627-0133 京都府京丹後市弥栄町鳥取123",
    "lat": 35.674342,
    "lng": 135.068268
  },
  {
    "name": "ブルーベリー園",
    "address": "〒627-0133 京都府京丹後市弥栄町鳥取123",
    "lat": 35.674342,
    "lng": 135.068268
  },
  {
    "name": "ゴーカート営業日：土・日・祝営業時間：10:00～16:00",
    "address": "〒627-0133 京都府京丹後市弥栄町鳥取123",
    "lat": 35.674342,
    "lng": 135.068268
  },
  {
    "name": "木製アスレチック広場",
    "address": "〒627-0133 京都府京丹後市弥栄町鳥取123",
    "lat": 35.674342,
    "lng": 135.068268
  },
  {
    "name": "芝すべり",
    "address": "〒627-0133 京都府京丹後市弥栄町鳥取123",
    "lat": 35.674342,
    "lng": 135.068268
  },
  {
    "name": "ドッグラン",
    "address": "〒627-0133 京都府京丹後市弥栄町鳥取123",
    "lat": 35.674342,
    "lng": 135.068268
  },
  {
    "name": "キッズルーム",
    "address": "〒627-0133 京都府京丹後市弥栄町鳥取123",
    "lat": 35.674342,
    "lng": 135.068268
  },
  {
    "name": "情報交流センター",
    "address": "〒627-0133 京都府京丹後市弥栄町鳥取123",
    "lat": 35.674342,
    "lng": 135.068268
  },
  {
    "name": "ホテル丹後王国",
    "address": "〒627-0133 京都府京丹後市弥栄町鳥取123",
    "lat": 35.674342,
    "lng": 135.068268
  },
  {
    "name": "京丹後TRAILER",
    "address": "〒627-0133 京都府京丹後市弥栄町鳥取123",
    "lat": 35.674342,
    "lng": 135.068268
  },
  {
    "name": "ウミノ食品",
    "address": "〒627-0133 京都府京丹後市弥栄町鳥取123",
    "lat": 35.674342,
    "lng": 135.068268
  }
]